City_ID,City,Lat,Lng,Max Temp,Humidity,Cloudiness,Wind Speed,Country,Date,Max Temp (C),Max Temp (F)
0,nuku'alofa,-21.1333,-175.2,301.34,89,100,5.66,TO,1707725623,28.189999999999998,82.74199999999999
1,remire-montjoly,4.9167,-52.2667,299.17,89,75,3.09,GF,1707725624,26.02000000000004,78.83600000000007
2,blackmans bay,-43.0167,147.3167,292.22,68,98,2.91,AU,1707725624,19.07000000000005,66.32600000000009
3,puerto ayora,-0.7393,-90.3518,299.01,99,8,1.34,EC,1707725625,25.860000000000014,78.54800000000003
4,richards bay,-28.783,32.0377,300.31,51,21,2.96,ZA,1707725625,27.160000000000025,80.88800000000005
5,beira,-19.8436,34.8389,301.2,89,100,5.66,MZ,1707725626,28.05000000000001,82.49000000000002
6,bilibino,68.0546,166.4372,244.83,96,100,1.16,RU,1707725627,-28.319999999999965,-18.975999999999935
7,miracatu,-24.2814,-47.4597,295.8,95,56,0.92,BR,1707725627,22.650000000000034,72.77000000000007
8,cheste,39.4833,-0.6833,287.43,71,20,3.09,ES,1707725628,14.28000000000003,57.70400000000005
9,albany,42.6001,-73.9662,274.38,77,9,0.89,US,1707725473,1.2300000000000182,34.214000000000034
10,papatowai,-46.5619,169.4708,287.46,72,78,3.58,NZ,1707725629,14.310000000000002,57.758
11,yellowknife,62.456,-114.3525,256.71,99,99,1.34,CA,1707725480,-16.439999999999998,2.408000000000005
12,waitangi,-43.9535,-176.5597,286.38,85,100,1.34,NZ,1707725630,13.230000000000018,55.814000000000036
13,moultonborough,43.7548,-71.3967,274.99,74,100,0.45,US,1707725631,1.8400000000000318,35.312000000000054
14,fortaleza,-3.7227,-38.5247,300.22,89,40,2.57,BR,1707725632,27.07000000000005,80.72600000000008
15,ushuaia,-54.8,-68.3,279.94,81,40,10.29,AR,1707725632,6.7900000000000205,44.22200000000004
16,constitucion,-35.3333,-72.4167,288.54,77,0,5.36,CL,1707725633,15.390000000000043,59.702000000000076
17,rapid valley,44.0625,-103.1463,275.45,66,40,3.13,US,1707725633,2.3000000000000114,36.14000000000002
18,at taj,24.2049,23.2857,294.59,11,0,7.21,LY,1707725634,21.439999999999998,70.592
19,bethel,41.3712,-73.414,273.57,83,0,0.0,US,1707725635,0.4200000000000159,32.75600000000003
20,adamstown,-25.066,-130.1015,297.91,90,76,8.18,PN,1707725635,24.760000000000048,76.56800000000008
21,thompson,55.7435,-97.8558,255.24,85,40,1.03,CA,1707725636,-17.909999999999968,-0.2379999999999427
22,port-aux-francais,-49.35,70.2167,279.42,77,18,11.16,TF,1707725636,6.270000000000039,43.28600000000007
23,sikasso,10.9167,-7.0,298.04,12,0,1.82,ML,1707725637,24.890000000000043,76.80200000000008
24,oromocto,45.8351,-66.4792,274.23,84,100,3.6,CA,1707725638,1.080000000000041,33.944000000000074
25,grytviken,-54.2811,-36.5092,277.79,84,20,2.69,GS,1707725638,4.640000000000043,40.352000000000075
26,udachny,66.4167,112.4,240.35,98,98,2.15,RU,1707725639,-32.79999999999998,-27.039999999999964
27,san antonio de pale,-1.4014,5.6325,301.61,80,40,2.49,GQ,1707725640,28.460000000000036,83.22800000000007
28,petrozavodsk,61.7849,34.3469,250.85,84,75,1.0,RU,1707725640,-22.299999999999983,-8.139999999999972
29,mana,5.6592,-53.7767,297.8,85,17,4.08,GF,1707725641,24.650000000000034,76.37000000000006
30,vanimo,-2.6741,141.3028,300.89,79,100,5.08,PG,1707725641,27.74000000000001,81.93200000000002
31,ketchikan,55.3422,-131.6461,275.41,87,100,2.57,US,1707725642,2.2600000000000477,36.06800000000008
32,zouerate,22.7187,-12.4521,290.33,52,0,3.21,MR,1707725642,17.180000000000007,62.924000000000014
33,mwingi,-0.9344,38.0601,300.69,51,66,3.13,KE,1707725643,27.54000000000002,81.57200000000003
34,illizi,26.4833,8.4667,291.04,29,0,0.93,DZ,1707725644,17.890000000000043,64.20200000000008
35,atafu village,-8.5421,-172.5159,301.7,81,100,10.71,TK,1707725644,28.55000000000001,83.39000000000001
36,naracoorte,-36.9579,140.7383,307.45,16,0,5.31,AU,1707725645,34.30000000000001,93.74000000000002
37,longyearbyen,78.2186,15.6401,260.06,85,40,5.14,SJ,1707725646,-13.089999999999975,8.438000000000045
38,maryborough,-25.5333,152.7,299.32,70,21,4.66,AU,1707725646,26.170000000000016,79.10600000000002
39,talodi,10.6325,30.3797,306.64,8,92,3.92,SD,1707725647,33.49000000000001,92.28200000000001
40,sechura,-5.5569,-80.8222,298.77,72,23,5.2,PE,1707725648,25.620000000000005,78.11600000000001
41,edson,53.5835,-116.4356,269.28,95,100,0.59,CA,1707725405,-3.8700000000000045,25.033999999999992
42,tura,25.5198,90.2201,300.37,19,0,2.73,IN,1707725649,27.220000000000027,80.99600000000005
43,ribeira grande,38.5167,-28.7,290.37,82,75,10.8,PT,1707725649,17.220000000000027,62.99600000000005
44,ke-macina,13.9623,-5.3572,297.35,9,1,3.74,ML,1707725650,24.200000000000045,75.56000000000009
45,vorgashor,67.5833,63.95,240.67,100,99,0.75,RU,1707725651,-32.47999999999999,-26.463999999999984
46,edinburgh of the seven seas,-37.0676,-12.3116,290.04,69,39,8.26,SH,1707725651,16.890000000000043,62.40200000000008
47,kruisfontein,-34.0033,24.7314,301.42,23,0,4.35,ZA,1707725362,28.27000000000004,82.88600000000007
48,st. john's,47.5649,-52.7093,274.35,93,100,2.24,CA,1707725370,1.2000000000000455,34.16000000000008
49,boa vista,2.8197,-60.6733,299.14,65,0,6.69,BR,1707725653,25.99000000000001,78.78200000000001
50,sitka,57.0531,-135.33,280.09,81,100,6.17,US,1707725654,6.939999999999998,44.492
51,enewetak,11.3474,162.3373,299.62,77,98,9.97,MH,1707725654,26.470000000000027,79.64600000000004
52,newman,37.3138,-121.0208,279.4,90,31,0.89,US,1707725655,6.25,43.25
53,nguigmi,14.2495,13.1092,297.7,16,0,4.12,NE,1707725656,24.55000000000001,76.19000000000003
54,casper,42.8666,-106.3131,273.07,51,20,6.71,US,1707725656,-0.07999999999998408,31.85600000000003
55,baglung,28.2719,83.5898,294.43,19,1,4.31,NP,1707725657,21.28000000000003,70.30400000000006
56,tindouf,27.6711,-8.1474,287.4,30,1,2.57,DZ,1707725657,14.25,57.65
57,lucas,41.6501,-83.6666,272.13,88,0,0.0,US,1707725658,-1.0199999999999818,30.164000000000033
58,lebu,-37.6167,-73.65,286.91,84,6,11.13,CL,1707725659,13.760000000000048,56.768000000000086
59,vila franca do campo,37.7167,-25.4333,291.42,99,100,8.49,PT,1707725660,18.27000000000004,64.88600000000007
60,kailua-kona,19.6406,-155.9956,295.13,83,75,2.57,US,1707725660,21.980000000000018,71.56400000000004
61,vondrozo,-22.8167,47.2833,298.34,78,100,2.55,MG,1707725661,25.189999999999998,77.342
62,nova sintra,14.8667,-24.7167,292.87,79,9,7.09,CV,1707725662,19.720000000000027,67.49600000000005
63,avarua,-21.2078,-159.775,299.18,73,57,2.57,CK,1707725479,26.03000000000003,78.85400000000006
64,uturoa,-16.7333,-151.4333,300.06,90,100,8.3,PF,1707725663,26.910000000000025,80.43800000000005
65,aykhal,66.0,111.5,242.04,99,100,3.18,RU,1707725663,-31.109999999999985,-23.997999999999976
66,klyuchi,52.2667,79.1667,259.32,69,100,7.36,RU,1707725664,-13.829999999999984,7.10600000000003
67,bonthe,7.5264,-12.505,298.61,82,2,1.86,SL,1707725665,25.460000000000036,77.82800000000006
68,cabo san lucas,22.8909,-109.9124,291.21,70,0,2.03,MX,1707725473,18.060000000000002,64.50800000000001
69,furukawa,38.5717,140.9556,278.01,60,12,4.91,JP,1707725665,4.860000000000014,40.748000000000026
70,novaya igirma,57.1334,103.9112,260.34,88,100,3.91,RU,1707725667,-12.810000000000002,8.941999999999997
71,chui,-33.6971,-53.4616,296.38,95,0,2.59,UY,1707725668,23.230000000000018,73.81400000000004
72,esil,51.9556,66.4042,258.92,85,89,3.75,KZ,1707725669,-14.229999999999961,6.38600000000007
73,kupang,-10.1667,123.5833,303.47,84,40,5.14,ID,1707725669,30.32000000000005,86.57600000000009
74,bukama,-9.2,25.85,295.28,97,100,0.89,CD,1707725670,22.129999999999995,71.83399999999999
75,arkhangel'sk,64.5401,40.5433,250.21,84,75,2.0,RU,1707725670,-22.93999999999997,-9.291999999999945
76,tafuna,-14.3358,-170.72,301.12,100,75,2.06,AS,1707725671,27.970000000000027,82.34600000000005
77,akureyri,65.6835,-18.0878,274.11,80,75,7.72,IS,1707725672,0.9600000000000364,33.728000000000065
78,portland,45.5234,-122.6762,282.38,92,100,4.63,US,1707725580,9.230000000000018,48.61400000000003
79,uusikaupunki,60.8004,21.4084,263.92,72,28,5.94,FI,1707725673,-9.229999999999961,15.38600000000007
80,hawaiian paradise park,19.5933,-154.9731,294.88,93,100,3.09,US,1707725674,21.730000000000018,71.11400000000003
81,wailua homesteads,22.0669,-159.378,293.39,83,0,3.6,US,1707725675,20.24000000000001,68.43200000000002
82,pemangkat,1.1667,108.9667,300.58,82,100,5.91,ID,1707725675,27.430000000000007,81.37400000000001
83,xining,36.6167,101.7667,278.91,20,0,1.66,CN,1707725676,5.760000000000048,42.36800000000009
84,ceeldheer,3.8488,47.1806,306.47,39,60,7.07,SO,1707725677,33.32000000000005,91.97600000000008
85,olonkinbyen,70.9221,-8.7187,270.76,74,100,6.73,SJ,1707725677,-2.3899999999999864,27.698000000000025
86,arraial do cabo,-22.9661,-42.0278,297.95,89,3,9.6,BR,1707725678,24.80000000000001,76.64000000000001
87,west island,-12.1568,96.8225,304.14,70,40,3.6,CC,1707725679,30.99000000000001,87.78200000000001
88,nenagh,52.8619,-8.1967,275.13,94,12,3.38,IE,1707725680,1.9800000000000182,35.564000000000036
89,haiku-pauwela,20.9219,-156.3051,294.28,89,40,2.06,US,1707725681,21.129999999999995,70.03399999999999
90,myeik,12.4333,98.6,303.03,51,34,4.74,MM,1707725681,29.879999999999995,85.78399999999999
91,hermanus,-34.4187,19.2345,300.29,48,0,1.37,ZA,1707725682,27.140000000000043,80.85200000000007
92,oamaru,-45.0784,170.9801,287.25,74,9,4.61,NZ,1707725683,14.100000000000023,57.38000000000004
93,ressano garcia,-25.442,31.9913,300.18,55,84,2.24,MZ,1707725684,27.03000000000003,80.65400000000005
94,santa elena de uairen,4.6167,-61.1333,290.45,88,46,2.24,VE,1707725684,17.30000000000001,63.14000000000002
95,tiksi,71.6872,128.8694,239.07,100,100,0.61,RU,1707725685,-34.079999999999984,-29.343999999999973
96,souillac,-20.5167,57.5167,303.9,79,75,6.17,MU,1707725686,30.75,87.35
97,san mariano,7.5,126.0,300.1,68,14,3.95,PH,1707725686,26.950000000000045,80.51000000000008
98,keflavik,64.0049,-22.5624,273.39,93,100,7.72,IS,1707725687,0.2400000000000091,32.432000000000016
99,bredasdorp,-34.5322,20.0403,301.72,38,0,1.48,ZA,1707725688,28.57000000000005,83.42600000000009
100,jalai nur,49.45,117.7,268.21,86,71,0.86,CN,1707725688,-4.939999999999998,23.108000000000004
101,isangel,-19.55,169.2667,299.63,88,8,6.34,VU,1707725689,26.480000000000018,79.66400000000003
102,queenstown,-31.8976,26.8753,303.27,25,0,5.25,ZA,1707725690,30.120000000000005,86.21600000000001
103,melfort,52.8667,-104.6177,266.22,79,8,3.6,CA,1707725690,-6.92999999999995,19.52600000000009
104,center,31.5107,-96.4247,279.37,76,100,4.63,US,1707725691,6.220000000000027,43.19600000000005
105,iqaluit,63.7506,-68.5145,243.0,63,20,7.2,CA,1707725563,-30.149999999999977,-22.26999999999996
106,georgetown,5.4112,100.3354,309.12,38,20,4.63,MY,1707725692,35.97000000000003,96.74600000000005
107,tralee,52.2704,-9.7026,276.29,93,75,3.09,IE,1707725693,3.140000000000043,37.65200000000008
108,petropavlovsk-kamchatsky,53.0452,158.6483,259.48,47,0,3.0,RU,1707725693,-13.669999999999959,7.394000000000073
109,tazacorte,28.629,-17.9293,291.57,58,20,2.24,ES,1707725694,18.420000000000016,65.15600000000003
110,shangzhi,45.2167,127.9667,275.01,68,0,10.7,CN,1707725694,1.8600000000000136,35.34800000000003
111,ambodifotatra,-16.9833,49.85,300.14,80,73,3.51,MG,1707725695,26.99000000000001,80.58200000000002
112,college,64.8569,-147.8028,259.33,85,40,1.54,US,1707725696,-13.819999999999993,7.124000000000013
113,port mathurin,-19.6833,63.4167,300.62,85,15,8.78,MU,1707725697,27.470000000000027,81.44600000000005
114,kiama,-34.6833,150.8667,300.58,75,34,4.47,AU,1707725697,27.430000000000007,81.37400000000001
115,susuman,62.7833,148.1667,235.92,100,35,0.45,RU,1707725698,-37.22999999999999,-35.01399999999998
116,puerto natales,-51.7236,-72.4875,280.14,73,93,5.83,CL,1707725699,6.990000000000009,44.582000000000015
117,conception bay south,47.4999,-52.9981,274.22,95,99,3.28,CA,1707725699,1.07000000000005,33.92600000000009
118,hithadhoo,-0.6,73.0833,299.61,87,100,7.69,MV,1707725700,26.460000000000036,79.62800000000007
119,jamestown,42.097,-79.2353,273.92,91,100,3.09,US,1707725623,0.7700000000000387,33.38600000000007
120,sarangani,5.4033,125.4636,300.69,76,75,11.08,PH,1707725701,27.54000000000002,81.57200000000003
121,isafjordur,66.0755,-23.124,274.17,75,100,10.29,IS,1707725702,1.0200000000000387,33.83600000000007
122,sao gabriel da cachoeira,-0.1303,-67.0892,296.19,99,100,0.27,BR,1707725703,23.04000000000002,73.47200000000004
123,qaqortoq,60.7167,-46.0333,261.87,68,100,2.61,GL,1707725704,-11.279999999999973,11.696000000000048
124,hadibu,12.65,54.0333,300.37,64,9,3.84,YE,1707725705,27.220000000000027,80.99600000000005
125,magomeni,-6.8,39.25,304.16,64,99,4.07,TZ,1707725708,31.010000000000048,87.81800000000008
126,porto seguro,-16.4497,-39.0647,297.44,100,40,1.54,BR,1707725710,24.29000000000002,75.72200000000004
127,puerto aysen,-45.4,-72.7,276.62,97,53,1.64,CL,1707725579,3.4700000000000273,38.24600000000005
128,punta arenas,-53.15,-70.9167,280.21,70,0,9.77,CL,1707725519,7.060000000000002,44.708000000000006
129,taltal,-25.4,-70.4833,292.68,84,100,2.01,CL,1707725420,19.53000000000003,67.15400000000005
130,caleta de carquin,-11.0925,-77.6267,297.18,84,100,3.33,PE,1707725712,24.03000000000003,75.25400000000005
131,conde,-7.2597,-34.9075,297.85,94,40,3.09,BR,1707725713,24.700000000000045,76.46000000000008
132,tabou,4.423,-7.3528,300.68,84,63,1.51,CI,1707725714,27.53000000000003,81.55400000000006
133,bodaybo,57.8506,114.1933,262.49,85,100,4.93,RU,1707725714,-10.659999999999968,12.812000000000058
134,mugia,43.1041,-9.2179,284.21,78,100,2.57,ES,1707725715,11.060000000000002,51.908
135,callao,-12.0667,-77.15,299.1,73,40,7.2,PE,1707725716,25.950000000000045,78.71000000000008
136,stanley,54.868,-1.6985,276.92,87,75,3.6,GB,1707725716,3.7700000000000387,38.78600000000007
137,lyubim,58.3625,40.6843,266.57,94,100,2.15,RU,1707725717,-6.579999999999984,20.156000000000027
138,alaghsas,17.0187,8.0168,296.09,10,0,2.57,NE,1707725718,22.939999999999998,73.292
139,khanty-mansiysk,61.0042,69.0019,251.54,71,0,6.0,RU,1707725718,-21.609999999999985,-6.897999999999975
140,waingapu,-9.6567,120.2641,300.76,84,92,5.7,ID,1707725719,27.610000000000014,81.69800000000002
141,hammerfest,70.6634,23.6821,270.4,100,75,2.06,NO,1707725547,-2.75,27.05
142,prado,-17.3411,-39.2208,297.2,92,10,0.99,BR,1707725721,24.05000000000001,75.29000000000002
143,stephenville,32.2207,-98.2023,276.62,88,100,4.63,US,1707725721,3.4700000000000273,38.24600000000005
144,pontianak,-0.0333,109.3333,306.14,58,40,2.57,ID,1707725722,32.99000000000001,91.38200000000002
145,sao jose da coroa grande,-8.8978,-35.1478,299.5,82,100,3.97,BR,1707725723,26.350000000000023,79.43000000000004
146,ilulissat,69.2167,-51.1,250.16,59,57,1.54,GL,1707725724,-22.98999999999998,-9.381999999999962
147,morondava,-20.2833,44.2833,301.93,74,100,2.2,MG,1707725725,28.78000000000003,83.80400000000006
148,anadyr,64.75,177.4833,245.43,75,0,7.0,RU,1707725725,-27.71999999999997,-17.895999999999944
149,margaret river,-33.95,115.0667,294.85,55,7,8.78,AU,1707725726,21.700000000000045,71.06000000000009
150,fort bragg,35.139,-79.006,288.61,95,100,1.54,US,1707725727,15.460000000000036,59.82800000000007
151,saldanha,-33.0117,17.9442,295.42,71,14,3.19,ZA,1707725727,22.27000000000004,72.08600000000007
152,usinsk,65.9939,57.5281,243.75,98,80,1.79,RU,1707725728,-29.399999999999977,-20.91999999999996
153,kodiak,57.79,-152.4072,274.88,69,20,1.54,US,1707725729,1.7300000000000182,35.11400000000003
154,hasaki,35.7333,140.8333,283.31,46,22,5.07,JP,1707725729,10.160000000000025,50.288000000000046
155,yuzhno-kurilsk,44.0306,145.8556,267.8,80,46,1.45,RU,1707725730,-5.349999999999966,22.37000000000006
156,punta del este,-34.9667,-54.95,298.69,97,0,2.24,UY,1707725731,25.54000000000002,77.97200000000004
157,kayattar,8.95,77.8,306.87,38,100,6.6,IN,1707725731,33.72000000000003,92.69600000000005
158,sfizef,35.2346,-0.2444,287.87,75,42,7.69,DZ,1707725732,14.720000000000027,58.49600000000005
159,senanga,-16.1167,23.2667,301.91,47,14,3.79,ZM,1707725733,28.760000000000048,83.76800000000009
160,kabansk,52.0486,106.6528,265.7,83,100,4.94,RU,1707725733,-7.449999999999989,18.59000000000002
161,yaren,-0.5472,166.916,301.9,75,61,2.97,NR,1707725734,28.75,83.75
162,dudinka,69.4058,86.1778,235.75,99,50,1.79,RU,1707725735,-37.39999999999998,-35.319999999999965
163,port lincoln,-34.7333,135.8667,297.15,55,0,5.46,AU,1707725735,24.0,75.2
164,praia da vitoria,38.7333,-27.0667,289.68,82,40,9.2,PT,1707725736,16.53000000000003,61.754000000000055
165,peace river,56.2501,-117.286,270.18,82,20,2.57,CA,1707725737,-2.9699999999999704,26.654000000000053
166,east london,-33.0153,27.9116,299.67,61,0,7.72,ZA,1707725737,26.52000000000004,79.73600000000008
167,maragogi,-9.0122,-35.2225,299.48,82,100,3.75,BR,1707725709,26.33000000000004,79.39400000000008
168,savino,56.5929,41.2181,265.43,94,100,3.12,RU,1707725738,-7.71999999999997,18.104000000000052
169,bam,29.106,58.357,291.53,27,7,6.51,IR,1707725739,18.379999999999995,65.08399999999999
170,namibe,-15.1961,12.1522,302.17,65,75,2.65,AO,1707725738,29.02000000000004,84.23600000000008
171,dhamar,14.5427,44.4051,291.5,45,71,2.57,YE,1707725741,18.350000000000023,65.03000000000004
172,iskateley,67.6803,53.1512,243.72,98,33,1.79,RU,1707725741,-29.42999999999998,-20.973999999999954
173,san pedro,14.35,121.0167,301.72,58,20,5.66,PH,1707725742,28.57000000000005,83.42600000000009
174,antigonish,45.6169,-61.9986,275.38,88,100,4.92,CA,1707725743,2.230000000000018,36.01400000000003
175,hamilton,39.1834,-84.5333,275.62,84,100,2.57,US,1707725743,2.4700000000000273,36.44600000000005
176,utrik,11.2278,169.8474,299.4,79,100,9.88,MH,1707725744,26.25,79.25
177,constantia,44.1833,28.65,285.76,78,95,10.63,RO,1707725662,12.610000000000014,54.69800000000002
178,barcelos,41.5388,-8.6151,286.23,90,98,1.26,PT,1707725745,13.080000000000041,55.544000000000075
179,marabba,12.35,32.1833,302.08,9,8,5.04,SD,1707725746,28.930000000000007,84.07400000000001
180,badger,64.8,-147.5333,259.29,83,0,1.54,US,1707725746,-13.859999999999957,7.052000000000078
181,diessen am ammersee,47.95,11.1,279.64,81,20,4.63,DE,1707725747,6.490000000000009,43.682000000000016
182,lihue,21.9789,-159.3672,293.73,85,0,3.6,US,1707725748,20.58000000000004,69.04400000000007
183,howrah,22.5892,88.3103,300.15,44,20,1.54,IN,1707725748,27.0,80.6
184,bytow,54.1706,17.4919,277.15,99,100,1.72,PL,1707725749,4.0,39.2
185,lerwick,60.1545,-1.1494,279.15,94,100,3.85,GB,1707725749,6.0,42.8
186,chibougamau,49.9168,-74.3659,257.94,85,75,0.0,CA,1707725750,-15.20999999999998,4.622000000000035
187,nuuk,64.1835,-51.7216,260.49,72,40,6.17,GL,1707725596,-12.659999999999968,9.212000000000057
188,yunyang,33.4474,112.7142,289.38,50,0,3.24,CN,1707725752,16.230000000000018,61.214000000000034
189,zaporizhia,47.8167,35.1833,284.89,56,100,6.79,UA,1707725752,11.740000000000009,53.13200000000002
190,payakumbuh,-0.2202,100.6308,301.19,63,78,2.54,ID,1707725753,28.04000000000002,82.47200000000004
191,mount isa,-20.7333,139.5,308.02,38,40,4.63,AU,1707725754,34.870000000000005,94.766
192,mendi,-6.1761,143.6513,289.74,96,93,0.8,PG,1707725754,16.590000000000032,61.86200000000006
193,vegreville,53.5001,-112.0518,266.32,83,100,3.6,CA,1707725755,-6.829999999999984,19.706000000000028
194,mariehamn,60.0973,19.9348,266.38,79,100,4.12,AX,1707725756,-6.769999999999982,19.814000000000032
195,xiongzhou,25.1167,114.3,294.37,32,6,1.47,CN,1707725756,21.220000000000027,70.19600000000005
196,nar'yan-mar,67.6713,53.087,243.77,98,30,1.79,RU,1707725757,-29.379999999999967,-20.883999999999943
197,jean-rabel,19.8533,-73.1917,295.03,77,0,2.54,HT,1707725758,21.879999999999995,71.38399999999999
198,kununurra,-15.7667,128.7333,307.14,55,99,0.51,AU,1707725758,33.99000000000001,93.18200000000002
199,sao vicente,-23.9631,-46.3919,300.25,26,31,0.45,BR,1707725686,27.100000000000023,80.78000000000004
200,tsiombe,-25.3,45.4833,305.09,57,91,3.61,MG,1707725759,31.939999999999998,89.49199999999999
201,saipan,15.1355,145.701,300.54,74,75,7.2,MP,1707725534,27.390000000000043,81.30200000000008
202,arica,-18.475,-70.3042,296.9,68,100,2.57,CL,1707725761,23.75,74.75
203,toliara,-23.35,43.6667,303.7,64,99,2.51,MG,1707725762,30.55000000000001,86.99000000000002
204,lagunas,-5.2269,-75.6753,296.38,97,97,0.97,PE,1707725762,23.230000000000018,73.81400000000004
205,pikalevo,59.5183,34.1664,263.55,93,99,2.73,RU,1707725763,-9.599999999999966,14.720000000000063
206,kharkhorin,47.1975,102.8238,276.26,55,11,10.38,MN,1707725764,3.1100000000000136,37.59800000000003
207,pechora,65.1472,57.2244,248.07,97,89,2.24,RU,1707725765,-25.079999999999984,-13.14399999999997
208,mil'kovo,55.6078,37.7956,270.6,97,100,3.43,RU,1707725766,-2.5499999999999545,27.410000000000082
209,el sauzal de rodriguez,31.9,-116.6833,284.07,57,0,1.62,MX,1707725766,10.920000000000016,51.65600000000003
210,puerto baquerizo moreno,-0.9,-89.6,299.1,86,19,2.43,EC,1707725767,25.950000000000045,78.71000000000008
211,prien,30.1819,-93.2738,288.16,89,100,9.26,US,1707725768,15.010000000000048,59.018000000000086
212,as sulayyil,20.4607,45.5779,295.29,25,1,3.78,SA,1707725768,22.140000000000043,71.85200000000007
213,nagqu,31.5,92.0,270.61,12,79,4.71,CN,1707725769,-2.5399999999999636,27.428000000000065
214,devils lake,48.1128,-98.8651,268.14,91,0,5.14,US,1707725770,-5.009999999999991,22.982000000000017
215,puerto deseado,-47.7503,-65.8938,282.38,51,0,13.5,AR,1707725771,9.230000000000018,48.61400000000003
216,oranjemund,-28.55,16.4333,292.84,86,0,1.84,NA,1707725771,19.689999999999998,67.442
217,sri dungargarh,28.0833,74.0167,295.77,15,94,1.44,IN,1707725772,22.620000000000005,72.71600000000001
218,san patricio,28.017,-97.5169,286.95,73,40,6.04,US,1707725773,13.800000000000011,56.84000000000002
219,coquimbo,-29.9533,-71.3436,289.0,88,75,1.03,CL,1707725774,15.850000000000023,60.530000000000044
220,invercargill,-46.4,168.35,289.27,73,58,3.13,NZ,1707725775,16.120000000000005,61.016000000000005
221,quellon,-43.1167,-73.6167,281.84,77,2,3.13,CL,1707725775,8.689999999999998,47.641999999999996
222,tezu,27.9167,96.1667,299.89,23,0,1.9,IN,1707725776,26.74000000000001,80.13200000000002
223,kerikeri,-35.2268,173.9474,294.21,75,91,1.18,NZ,1707725777,21.060000000000002,69.908
224,pankrushikha,53.8319,80.3406,254.94,90,100,6.3,RU,1707725778,-18.20999999999998,-0.7779999999999632
225,lorengau,-2.0226,147.2712,301.8,76,98,3.69,PG,1707725778,28.650000000000034,83.57000000000006
226,elverum,60.8819,11.5623,264.83,95,100,2.42,NO,1707725779,-8.319999999999993,17.02400000000001
227,dalandzadgad,43.5708,104.425,273.84,56,0,1.67,MN,1707725780,0.6899999999999977,33.242
228,oulad teima,30.3947,-9.209,284.75,61,0,1.39,MA,1707725780,11.600000000000023,52.88000000000004
229,tarko-sale,64.9225,77.785,246.93,94,96,3.98,RU,1707725781,-26.21999999999997,-15.195999999999948
230,port elizabeth,-33.918,25.5701,303.2,64,0,4.63,ZA,1707725782,30.05000000000001,86.09000000000002
231,waajid,3.8096,43.2463,306.38,30,71,5.83,SO,1707725782,33.23000000000002,91.81400000000004
232,santa rosa del sur,7.9644,-74.0544,294.97,96,16,0.54,CO,1707725783,21.82000000000005,71.2760000000001
233,choibalsan,48.0667,114.5,270.72,74,80,5.15,MN,1707725784,-2.42999999999995,27.62600000000009
234,delta,5.5,6.0,303.76,67,4,1.37,NG,1707725719,30.610000000000014,87.09800000000003
235,alesund,62.4723,6.1549,279.23,52,20,7.72,NO,1707725785,6.080000000000041,42.944000000000074
236,beberibe,-4.1797,-38.1306,298.67,87,79,4.7,BR,1707725785,25.52000000000004,77.93600000000006
237,aasiaat,68.7098,-52.8699,245.88,100,100,2.59,GL,1707725786,-27.269999999999982,-17.08599999999997
238,chupaca,-12.0667,-75.2833,283.39,88,100,0.88,PE,1707725787,10.240000000000009,50.432000000000016
239,puerto santa,-8.9906,-78.6456,296.75,86,100,2.89,PE,1707725787,23.600000000000023,74.48000000000005
240,sur,22.5667,59.5289,298.24,63,99,7.91,OM,1707725788,25.090000000000032,77.16200000000006
241,malabar,-33.9667,151.25,300.77,75,20,9.26,AU,1707725789,27.620000000000005,81.71600000000001
242,luderitz,-26.6481,15.1594,296.29,63,1,2.76,NA,1707725789,23.140000000000043,73.65200000000007
243,port saint john's,-31.6229,29.5448,299.2,62,89,7.38,ZA,1707725790,26.05000000000001,78.89000000000001
244,tadine,-21.55,167.8833,298.72,85,8,9.15,NC,1707725791,25.57000000000005,78.0260000000001
245,wau,7.7029,27.9953,306.67,11,100,2.89,SS,1707725792,33.52000000000004,92.33600000000007
246,iaciara,-14.0958,-46.6317,291.9,98,100,1.3,BR,1707725793,18.75,65.75
247,manakara,-22.1333,48.0167,300.52,82,100,3.24,MG,1707725755,27.370000000000005,81.266
248,zhumysker,49.3333,49.4,269.78,94,100,4.43,KZ,1707725794,-3.3700000000000045,25.93399999999999
249,carnarvon,-24.8667,113.6333,301.47,65,1,11.92,AU,1707725795,28.32000000000005,82.97600000000008
250,ola,59.5833,151.2833,253.28,94,100,2.63,RU,1707725795,-19.869999999999976,-3.7659999999999556
251,ust-nera,64.5667,143.2,234.74,100,58,0.67,RU,1707725796,-38.40999999999997,-37.13799999999995
252,serhetabat,35.2799,62.3438,290.51,25,0,1.47,TM,1707725797,17.360000000000014,63.248000000000026
253,mogocha,53.7333,119.7667,267.77,78,100,2.27,RU,1707725798,-5.3799999999999955,22.31600000000001
254,jabor,5.921,169.6434,300.83,79,63,10.45,MH,1707725798,27.680000000000007,81.82400000000001
255,valparaiso,-33.0393,-71.6273,289.44,86,1,6.39,CL,1707725799,16.29000000000002,61.32200000000004
256,libenge,3.65,18.6333,305.97,20,100,1.06,CD,1707725800,32.82000000000005,91.07600000000009
257,kingston,17.997,-76.7936,298.68,83,20,6.17,JM,1707725800,25.53000000000003,77.95400000000005
258,alofi,-19.0595,-169.9187,299.09,94,97,1.54,NU,1707725801,25.939999999999998,78.692
259,zahedan,29.4963,60.8629,290.1,20,75,4.12,IR,1707725802,16.950000000000045,62.51000000000008
260,bridlington,54.0831,-0.1919,277.12,89,29,0.89,GB,1707725802,3.9700000000000273,39.14600000000005
261,hitachi,36.6,140.65,279.07,53,4,5.8,JP,1707725803,5.920000000000016,42.65600000000003
262,mili,6.0815,171.735,300.65,76,100,10.79,MH,1707725803,27.5,81.5
263,kiuruvesi,63.65,26.6167,255.05,81,5,1.0,FI,1707725804,-18.099999999999966,-0.5799999999999415
264,barguzin,53.6167,109.6167,263.31,90,50,4.08,RU,1707725805,-9.839999999999975,14.288000000000046
265,paracuru,-3.41,-39.0306,299.32,87,40,5.2,BR,1707725806,26.170000000000016,79.10600000000002
266,kutum,14.2,24.6667,299.44,12,0,2.94,SD,1707725806,26.29000000000002,79.32200000000003
267,shubarshi,48.5872,57.1869,265.47,81,93,6.19,KZ,1707725807,-7.67999999999995,18.17600000000009
268,panadura,6.7132,79.9026,302.57,60,100,2.52,LK,1707725807,29.420000000000016,84.95600000000003
269,nova vicosa,-17.8919,-39.3719,295.94,98,11,0.37,BR,1707725808,22.79000000000002,73.02200000000003
270,seven pagodas,12.6264,80.1722,303.2,59,91,6.27,IN,1707725809,30.05000000000001,86.09000000000002
271,uaua,-9.8414,-39.4817,294.91,95,96,5.8,BR,1707725810,21.760000000000048,71.16800000000009
272,altay,47.8667,88.1167,265.09,74,95,1.22,CN,1707725811,-8.060000000000002,17.491999999999997
273,auki,-8.7676,160.7034,301.43,78,59,9.43,SB,1707725723,28.28000000000003,82.90400000000005
274,badiyah,22.45,58.8,297.24,58,85,5.93,OM,1707725812,24.090000000000032,75.36200000000005
275,kalmunai,7.4167,81.8167,301.77,72,55,6.57,LK,1707725813,28.620000000000005,83.516
276,sandnessjoen,66.0217,12.6316,270.21,54,0,4.12,NO,1707725813,-2.9399999999999977,26.708000000000006
277,the pas,53.8251,-101.2541,267.16,93,100,0.0,CA,1707725814,-5.989999999999952,21.218000000000085
278,qusmuryn,52.4503,64.6311,258.17,89,100,4.15,KZ,1707725814,-14.979999999999961,5.036000000000069
279,hanzhong,33.0728,107.0303,291.77,30,0,1.93,CN,1707725734,18.620000000000005,65.516
280,yarovoye,52.9273,78.58,257.96,76,100,7.16,RU,1707725816,-15.189999999999998,4.658000000000005
281,new norfolk,-42.7826,147.0587,292.43,50,92,1.72,AU,1707725816,19.28000000000003,66.70400000000005
282,westport,41.1415,-73.3579,276.66,77,0,1.54,US,1707725817,3.5100000000000477,38.31800000000008
283,kerema,-7.9631,145.7785,301.98,77,32,1.67,PG,1707725818,28.83000000000004,83.89400000000008
284,alice springs,-23.7,133.8833,307.9,34,40,3.6,AU,1707725818,34.75,94.55
285,yermakovskoye,53.2831,92.4003,264.61,72,100,5.4,RU,1707725819,-8.539999999999964,16.628000000000064
286,guarapuava,-25.3953,-51.4581,291.28,67,100,1.09,BR,1707725820,18.129999999999995,64.63399999999999
287,viqueque,-8.8673,126.3658,300.92,84,88,1.19,TL,1707725820,27.77000000000004,81.98600000000008
288,choyr,46.3611,108.3611,267.52,79,1,2.05,MN,1707725821,-5.6299999999999955,21.866000000000007
289,kone,-21.0595,164.8658,299.27,86,8,1.56,NC,1707725822,26.120000000000005,79.016
290,saiha,22.4833,92.9667,300.35,18,99,2.02,IN,1707725822,27.200000000000045,80.96000000000008
291,san nicolas,18.1725,120.5953,302.1,48,20,6.17,PH,1707725823,28.950000000000045,84.11000000000008
292,pirot,43.1531,22.5861,284.51,72,100,1.96,RS,1707725824,11.360000000000014,52.44800000000002
293,whitehorse,60.7161,-135.0538,268.58,63,20,6.17,CA,1707725824,-4.569999999999993,23.77400000000001
294,zag,46.9441,99.165,270.12,77,57,9.62,MN,1707725825,-3.0299999999999727,26.54600000000005
295,ostersund,63.1792,14.6357,263.4,85,0,3.6,SE,1707725825,-9.75,14.45
296,nchelenge,-9.3451,28.734,295.47,81,94,1.57,ZM,1707725826,22.32000000000005,72.17600000000009
297,mar del plata,-38.0023,-57.5575,297.01,88,100,1.79,AR,1707725822,23.860000000000014,74.94800000000002
298,adelaide,-34.9333,138.6,309.84,26,0,4.12,AU,1707725611,36.69,98.042
299,rio preto da eva,-2.6994,-59.6997,296.68,95,97,1.26,BR,1707725828,23.53000000000003,74.35400000000006
300,yeniseysk,58.4497,92.1703,258.12,91,100,4.02,RU,1707725829,-15.029999999999973,4.946000000000048
301,sisimiut,66.9395,-53.6735,251.26,91,34,2.01,GL,1707725830,-21.889999999999986,-7.401999999999973
302,uliastay,47.7417,96.8444,268.3,67,100,2.77,MN,1707725831,-4.849999999999966,23.27000000000006
303,marti,22.9475,-80.9203,292.85,90,0,3.46,CU,1707725831,19.700000000000045,67.46000000000008
304,veraval,20.9,70.3667,300.27,29,97,4.03,IN,1707725832,27.120000000000005,80.816
305,conselve,45.2309,11.8738,284.25,89,100,1.9,IT,1707725832,11.100000000000023,51.98000000000004
306,ocean shores,46.9737,-124.1563,282.2,93,100,9.26,US,1707725576,9.050000000000011,48.29000000000002
307,marquette,46.5333,-87.6335,269.64,78,26,0.45,US,1707725834,-3.509999999999991,25.682000000000016
308,khonsa,27.0167,95.5667,293.56,43,16,2.15,IN,1707725835,20.410000000000025,68.73800000000004
309,bairnsdale,-37.8333,147.6167,307.07,43,44,0.89,AU,1707725835,33.920000000000016,93.05600000000003
310,pikeville,37.4793,-82.5188,283.88,94,100,2.06,US,1707725836,10.730000000000018,51.314000000000036
311,samfya,-11.3649,29.5565,296.28,75,100,3.14,ZM,1707725837,23.129999999999995,73.63399999999999
312,kolondieba,11.0882,-6.8926,297.92,11,0,1.98,ML,1707725838,24.77000000000004,76.58600000000007
313,acapulco de juarez,16.8634,-99.8901,299.05,73,0,4.12,MX,1707725719,25.900000000000034,78.62000000000006
314,ulladulla,-35.35,150.4667,297.93,72,1,6.02,AU,1707725839,24.78000000000003,76.60400000000006
315,prince rupert,54.3161,-130.3201,276.98,100,0,2.57,CA,1707725840,3.830000000000041,38.89400000000008
316,palmas,-10.2128,-48.3603,295.08,100,75,2.57,BR,1707725786,21.930000000000007,71.47400000000002
317,kenora,49.8167,-94.4337,266.69,93,100,1.03,CA,1707725841,-6.4599999999999795,20.372000000000035
318,singaraja,-8.112,115.0882,302.13,75,85,1.64,ID,1707725842,28.980000000000018,84.16400000000003
319,massakory,12.996,15.7293,300.99,9,0,5.35,TD,1707725843,27.840000000000032,82.11200000000005
320,iwanai,42.9744,140.5089,273.45,68,93,5.5,JP,1707725843,0.30000000000001137,32.54000000000002
321,kilis,36.7161,37.115,287.28,67,100,3.3,TR,1707725790,14.129999999999995,57.43399999999999
322,vilyuysk,63.7553,121.6247,245.93,96,100,4.92,RU,1707725845,-27.21999999999997,-16.995999999999945
323,dzhetygara,52.1908,61.2006,260.56,88,92,3.71,KZ,1707725845,-12.589999999999975,9.338000000000044
324,nemuro,43.3236,145.575,269.83,68,31,1.2,JP,1707725846,-3.319999999999993,26.02400000000001
325,rio gallegos,-51.6226,-69.2181,278.18,75,0,7.72,AR,1707725847,5.03000000000003,41.05400000000005
326,bahia blanca,-38.7196,-62.2724,294.4,62,100,9.22,AR,1707725847,21.25,70.25
327,gadzhiyevo,69.2551,33.3362,251.61,100,80,2.77,RU,1707725848,-21.539999999999964,-6.7719999999999345
328,camayenne,9.535,-13.6878,299.2,83,75,2.06,GN,1707725848,26.05000000000001,78.89000000000001
329,kudahuvadhoo,2.6708,72.8944,298.54,87,100,3.18,MV,1707725849,25.390000000000043,77.70200000000008
330,le port,-20.9373,55.2919,305.13,79,13,3.88,RE,1707725850,31.980000000000018,89.56400000000004
331,tangalle,6.024,80.7911,305.11,51,100,7.14,LK,1707725850,31.960000000000036,89.52800000000006
332,milagro,42.2386,-1.764,279.52,77,42,0.4,ES,1707725851,6.3700000000000045,43.46600000000001
333,bamboo flat,11.7,92.7167,303.2,70,40,5.14,IN,1707725852,30.05000000000001,86.09000000000002
334,longboat key,27.4125,-82.659,293.71,76,0,4.12,US,1707725852,20.560000000000002,69.00800000000001
335,koungou,-12.7336,45.2042,302.99,74,0,5.66,YT,1707725853,29.840000000000032,85.71200000000006
336,chenzhou,25.8,113.0333,294.51,36,24,3.37,CN,1707725854,21.360000000000014,70.44800000000002
337,hovd,48.0056,91.6419,272.87,27,52,3.32,MN,1707725854,-0.2799999999999727,31.49600000000005
338,galesong,-5.3166,119.3661,298.16,77,100,8.5,ID,1707725855,25.010000000000048,77.01800000000009
339,cobija,-11.0267,-68.7692,295.91,100,100,1.33,BO,1707725856,22.760000000000048,72.96800000000009
340,songea,-10.6833,35.65,292.63,95,100,1.06,TZ,1707725856,19.480000000000018,67.06400000000004
341,knoxville,35.9606,-83.9207,285.26,88,100,0.89,US,1707725612,12.110000000000014,53.79800000000002
342,minas de marcona,-15.2119,-75.1103,293.8,78,99,1.54,PE,1707725857,20.650000000000034,69.17000000000006
343,piti village,13.4626,144.6933,301.64,72,20,8.23,GU,1707725858,28.49000000000001,83.28200000000001
344,val-d'or,48.1002,-77.7828,267.2,93,100,2.57,CA,1707725859,-5.949999999999989,21.29000000000002
345,robertsport,6.7533,-11.3686,299.53,90,11,3.66,LR,1707725859,26.379999999999995,79.484
346,trevelin,-43.0858,-71.4639,278.86,91,1,1.56,AR,1707725860,5.710000000000036,42.27800000000006
347,gambiran satu,-8.3939,114.1464,301.95,77,30,1.77,ID,1707725860,28.80000000000001,83.84000000000002
348,sabang,5.8933,95.3214,301.23,75,10,12.86,ID,1707725861,28.08000000000004,82.54400000000007
349,ishigaki,24.3448,124.1572,293.22,45,40,5.14,JP,1707725862,20.07000000000005,68.12600000000009
350,dzhangala,49.2167,50.3333,269.51,94,100,4.35,KZ,1707725862,-3.6399999999999864,25.448000000000025
351,mangaratiba,-22.9597,-44.0406,298.63,82,28,3.04,BR,1707725863,25.480000000000018,77.86400000000003
352,tarawa,1.419,172.984,301.72,77,27,5.01,KI,1707725864,28.57000000000005,83.42600000000009
353,huambo,-12.7761,15.7392,295.11,69,60,0.89,AO,1707725737,21.960000000000036,71.52800000000006
354,pariaman,-0.619,100.12,307.18,60,36,2.53,ID,1707725865,34.03000000000003,93.25400000000005
355,mangrol,21.1167,70.1167,300.08,29,99,4.32,IN,1707725866,26.930000000000007,80.47400000000002
356,balqash,46.8481,74.995,260.48,72,0,4.0,KZ,1707725866,-12.669999999999959,9.194000000000074
357,charters towers,-20.1,146.2667,303.82,47,49,8.32,AU,1707725867,30.670000000000016,87.20600000000003
358,novyye burasy,52.1324,46.0714,262.41,95,100,5.05,RU,1707725868,-10.739999999999952,12.668000000000085
359,rudnyy,52.9594,63.1206,255.28,92,100,3.07,KZ,1707725869,-17.869999999999976,-0.16599999999995418
360,la passe,45.5549,-0.8967,280.36,94,100,8.49,FR,1707725869,7.210000000000036,44.978000000000065
361,fort st. john,56.2499,-120.8529,271.09,59,40,3.6,CA,1707725849,-2.0600000000000023,28.291999999999994
362,wucheng,29.6008,118.175,290.53,42,1,1.55,CN,1707725871,17.379999999999995,63.28399999999999
363,guli,28.8833,120.0333,290.15,46,0,3.5,CN,1707725750,17.0,62.6
364,gantang,26.92,119.6333,289.49,40,0,1.65,CN,1707725872,16.340000000000032,61.412000000000056
365,fale old settlement,-9.3852,-171.2468,300.99,86,100,8.83,TK,1707725873,27.840000000000032,82.11200000000005
366,berberati,4.2612,15.7922,303.76,19,100,1.31,CF,1707725873,30.610000000000014,87.09800000000003
367,mount pearl,47.5166,-52.7813,273.89,95,100,3.09,CA,1707725874,0.7400000000000091,33.332000000000015
368,nadi,-17.8,177.4167,301.15,94,75,2.57,FJ,1707725874,28.0,82.4
369,santa cruz,-17.8,-63.1667,297.85,94,75,6.17,BO,1707725753,24.700000000000045,76.46000000000008
370,itoman,26.1247,127.6694,292.16,48,40,4.63,JP,1707725876,19.010000000000048,66.21800000000009
371,kalianget,-7.05,113.9333,302.56,72,95,5.08,ID,1707725747,29.410000000000025,84.93800000000005
372,east ballina,-28.8667,153.5833,298.04,65,63,3.75,AU,1707725877,24.890000000000043,76.80200000000008
373,san fernando de monte cristi,19.8667,-71.65,294.36,77,1,5.68,DO,1707725878,21.210000000000036,70.17800000000007
374,shreveport,32.5251,-93.7502,284.27,85,100,3.09,US,1707725684,11.120000000000005,52.016000000000005
375,benghazi,32.1167,20.0667,289.86,58,95,7.86,LY,1707725717,16.710000000000036,62.07800000000007
376,fernie,49.5,-115.0687,275.26,98,100,1.84,CA,1707725879,2.1100000000000136,35.79800000000002
377,west bay,19.3667,-81.4167,298.74,86,6,0.45,KY,1707725880,25.590000000000032,78.06200000000005
378,cumberland,35.0502,-78.8664,289.25,95,100,1.54,US,1707725880,16.100000000000023,60.98000000000004
379,belawan,3.7755,98.6832,302.31,59,25,3.15,ID,1707725881,29.160000000000025,84.48800000000004
380,praya,14.9215,-23.5087,293.45,83,20,2.57,CV,1707725721,20.30000000000001,68.54000000000002
381,vadso,70.0744,29.7487,268.24,93,100,3.6,NO,1707725883,-4.909999999999968,23.162000000000056
382,cova figueira,14.8905,-24.2934,292.81,81,8,5.36,CV,1707725883,19.660000000000025,67.38800000000005
383,faaa,-17.55,-149.6,300.13,89,40,10.28,PF,1707725884,26.980000000000018,80.56400000000004
384,kourou,5.1552,-52.6478,299.18,90,55,4.68,GF,1707725885,26.03000000000003,78.85400000000006
385,jieshi,22.8134,115.8257,291.1,54,0,8.34,CN,1707725885,17.950000000000045,64.31000000000009
386,pont rouge,48.8833,-72.0825,266.31,97,100,1.35,CA,1707725886,-6.839999999999975,19.688000000000045
387,hacilar,38.6463,35.4494,279.98,57,100,2.06,TR,1707725887,6.830000000000041,44.294000000000075
388,hiratacho,35.4333,132.8167,282.16,49,20,1.54,JP,1707725887,9.010000000000048,48.21800000000009
389,tazovsky,67.4667,78.7,242.71,96,99,1.46,RU,1707725888,-30.43999999999997,-22.791999999999938
390,naze,28.3667,129.4833,288.66,60,2,4.86,JP,1707725889,15.510000000000048,59.918000000000085
391,bereznik,62.8551,42.7072,253.66,98,100,0.24,RU,1707725889,-19.48999999999998,-3.081999999999965
392,cold springs,39.6802,-119.9766,276.34,77,0,2.57,US,1707725890,3.1899999999999977,37.742
393,port alfred,-33.5906,26.891,299.77,58,0,9.17,ZA,1707725891,26.620000000000005,79.91600000000001
394,broken hill,-31.95,141.4333,308.03,22,73,1.03,AU,1707725845,34.879999999999995,94.78399999999999
395,iraquara,-12.2486,-41.6194,291.99,99,100,2.31,BR,1707725892,18.840000000000032,65.91200000000006
396,inhambane,-23.865,35.3833,299.48,56,100,6.54,MZ,1707725893,26.33000000000004,79.39400000000008
397,chokwe,-24.5333,32.9833,302.8,43,21,3.73,MZ,1707725893,29.650000000000034,85.37000000000006
398,ambovombe,-25.1667,46.0833,302.42,68,96,4.36,MG,1707725894,29.27000000000004,84.68600000000006
399,gharghoda,22.1667,83.35,304.74,28,100,2.62,IN,1707725895,31.590000000000032,88.86200000000005
400,san ignacio,17.1561,-89.0714,295.23,100,0,0.0,BZ,1707725895,22.08000000000004,71.74400000000007
401,vilyuchinsk,52.9306,158.4028,260.3,81,1,3.56,RU,1707725896,-12.849999999999966,8.870000000000061
402,muli,2.9167,73.5667,300.11,82,99,6.12,MV,1707725896,26.960000000000036,80.52800000000006
403,touros,-5.1989,-35.4608,300.79,79,94,8.4,BR,1707725897,27.640000000000043,81.75200000000008
404,alvaraes,-3.2208,-64.8042,296.94,97,100,1.14,BR,1707725898,23.79000000000002,74.82200000000003
405,wenchang,30.904,118.4887,291.72,36,0,2.09,CN,1707725898,18.57000000000005,65.42600000000009
406,ta`u,-14.2336,-169.5144,301.68,82,100,6.92,AS,1707725899,28.53000000000003,83.35400000000006
407,chadron,42.8294,-102.9999,270.01,80,0,2.06,US,1707725899,-3.1399999999999864,26.348000000000024
408,labrador city,52.9463,-66.9114,262.1,86,100,1.54,CA,1707725900,-11.049999999999955,12.110000000000081
409,yelizovo,53.1873,158.3805,260.23,47,0,3.0,RU,1707725901,-12.919999999999959,8.744000000000074
410,baiyin,36.5583,104.2081,282.53,18,0,2.21,CN,1707725902,9.379999999999995,48.88399999999999
411,kolonia town,6.964,158.206,301.15,74,75,3.09,FM,1707725902,28.0,82.4
412,chuguyevka,44.1653,133.8633,271.15,83,5,2.23,RU,1707725903,-2.0,28.4
413,hutchinson,38.0608,-97.9298,271.33,91,0,1.54,US,1707725689,-1.8199999999999932,28.72400000000001
414,lowestoft,52.4752,1.7516,277.73,95,54,4.01,GB,1707725904,4.580000000000041,40.24400000000007
415,port hedland,-20.3167,118.5667,307.18,59,0,8.75,AU,1707725905,34.03000000000003,93.25400000000005
416,slave lake,55.2834,-114.769,263.14,85,0,1.54,CA,1707725781,-10.009999999999991,13.982000000000017
417,clorinda,-25.2848,-57.7185,302.02,79,65,2.16,AR,1707725906,28.870000000000005,83.96600000000001
418,inirida,3.8653,-67.9239,297.11,90,31,0.32,CO,1707725907,23.960000000000036,75.12800000000007
419,port douglas,-16.4833,145.4667,300.78,80,49,2.44,AU,1707725908,27.629999999999995,81.734
420,douz,33.4663,9.0203,286.07,45,31,3.05,TN,1707725908,12.920000000000016,55.25600000000003
421,newnham,-41.3833,147.1333,295.68,53,7,9.77,AU,1707725909,22.53000000000003,72.55400000000006
422,tabuk,17.4189,121.4443,293.83,85,94,2.11,PH,1707725910,20.680000000000007,69.22400000000002
423,ancud,-41.8697,-73.8203,283.52,71,0,2.5,CL,1707725910,10.370000000000005,50.66600000000001
424,ambon,-3.6954,128.1814,304.23,66,40,2.57,ID,1707725740,31.08000000000004,87.94400000000007
425,geraldton,-28.7667,114.6,300.38,61,0,9.26,AU,1707725912,27.230000000000018,81.01400000000004
426,kapa'a,22.0752,-159.319,294.14,84,0,3.6,US,1707725807,20.99000000000001,69.78200000000001
427,mwinilunga,-11.7358,24.4293,300.07,55,100,0.37,ZM,1707725913,26.920000000000016,80.45600000000003
428,sungailiat,-1.85,106.1333,301.16,82,52,5.2,ID,1707725914,28.010000000000048,82.41800000000009
429,mount gambier,-37.8333,140.7667,301.21,24,0,2.67,AU,1707725914,28.060000000000002,82.50800000000001
430,fregenal de la sierra,38.1692,-6.6537,285.13,97,84,4.06,ES,1707725915,11.980000000000018,53.564000000000036
431,zhangye,38.9342,100.4517,282.27,15,3,2.25,CN,1707725763,9.120000000000005,48.41600000000001
432,pauini,-7.7136,-66.9764,296.33,100,100,0.48,BR,1707725916,23.180000000000007,73.72400000000002
433,crixas,-14.5489,-49.9692,293.51,94,100,1.08,BR,1707725918,20.360000000000014,68.64800000000002
434,belmonte,-15.8631,-38.8828,296.08,98,88,1.08,BR,1707725918,22.930000000000007,73.27400000000002
435,turinskaya sloboda,57.6232,64.3858,260.89,87,80,3.84,RU,1707725919,-12.259999999999991,9.932000000000016
436,berdigestyakh,62.0989,126.6992,250.15,99,100,0.42,RU,1707725920,-22.99999999999997,-9.399999999999949
437,plastun,44.7561,136.2939,270.16,87,22,1.17,RU,1707725921,-2.9899999999999523,26.618000000000087
438,san luis de la loma,17.2706,-100.8939,296.4,83,79,0.84,MX,1707725922,23.25,73.85
439,lushun,38.8,121.2667,281.27,66,0,4.94,CN,1707725745,8.120000000000005,46.61600000000001
440,bayugan,8.7561,125.7675,297.77,93,100,2.24,PH,1707725923,24.620000000000005,76.316
441,holmsund,63.706,20.3641,250.12,77,93,2.06,SE,1707725924,-23.029999999999973,-9.45399999999995
442,betioky,-23.7167,44.3833,305.89,48,99,2.84,MG,1707725924,32.74000000000001,90.93200000000002
443,huarmey,-10.0681,-78.1522,297.34,85,96,3.29,PE,1707725925,24.189999999999998,75.542
444,pacific grove,36.6177,-121.9166,281.85,90,0,1.54,US,1707725823,8.700000000000045,47.66000000000008
445,afaahiti,-17.75,-149.2833,299.08,86,100,4.36,PF,1707725926,25.930000000000007,78.674
446,talnakh,69.4865,88.3972,241.5,90,25,1.84,RU,1707725927,-31.649999999999977,-24.969999999999956
447,chonchi,-42.6128,-73.8092,282.66,94,0,1.02,CL,1707725795,9.510000000000048,49.11800000000009
448,las palmas,28.4204,-14.0131,289.59,82,20,4.12,ES,1707725928,16.439999999999998,61.592
449,tubarjal,30.4999,38.216,288.59,47,45,6.04,SA,1707725929,15.439999999999998,59.791999999999994
450,forster,-32.1667,152.5167,299.42,78,10,4.78,AU,1707725720,26.27000000000004,79.28600000000007
451,sao joao da barra,-21.6403,-41.0511,294.95,96,3,1.27,BR,1707725930,21.80000000000001,71.24000000000002
452,roma,43.2128,-75.4557,274.58,79,95,0.45,US,1707725931,1.4300000000000068,34.57400000000001
453,martapura,-3.4167,114.85,301.2,83,40,1.03,ID,1707725932,28.05000000000001,82.49000000000002
454,chardara,41.2547,67.9692,280.46,54,100,4.14,KZ,1707725932,7.310000000000002,45.158
455,siwa oasis,29.2041,25.5195,292.07,15,100,2.38,EG,1707725933,18.920000000000016,66.05600000000003
456,happy valley-goose bay,53.3168,-60.3315,272.32,100,100,3.6,CA,1707725934,-0.8299999999999841,30.50600000000003
457,kameshkovo,56.3481,41.0047,264.66,94,100,3.4,RU,1707725934,-8.489999999999952,16.718000000000085
458,lethem,3.3803,-59.7968,297.78,68,50,5.07,GY,1707725935,24.629999999999995,76.33399999999999
459,pizarro,4.9533,-77.366,298.5,92,56,1.84,CO,1707725936,25.350000000000023,77.63000000000004
460,guinticgan,11.5641,123.1236,299.64,78,14,8.94,PH,1707725936,26.49000000000001,79.68200000000002
461,nogliki,51.8333,143.1667,263.34,86,99,4.02,RU,1707725937,-9.810000000000002,14.341999999999995
462,williamson,30.6502,-97.6003,280.03,78,100,8.23,US,1707725937,6.8799999999999955,44.38399999999999
463,fortuna,40.5982,-124.1573,283.67,96,100,0.0,US,1707725938,10.520000000000039,50.93600000000007
464,northam,51.0333,-4.2167,279.6,79,3,4.0,GB,1707725939,6.4500000000000455,43.610000000000085
465,al hawatah,13.4167,34.6333,303.28,24,62,3.24,SD,1707725939,30.129999999999995,86.234
466,mariental,-24.6333,17.9667,305.72,21,29,2.32,NA,1707725826,32.57000000000005,90.62600000000009
467,tonga,-20.0,-175.0,300.81,87,100,6.94,TO,1707725940,27.660000000000025,81.78800000000004
468,grand falls-windsor,48.9332,-55.6649,274.54,94,100,1.32,CA,1707725919,1.3900000000000432,34.50200000000008
469,camana,-16.6228,-72.7111,296.58,90,100,1.78,PE,1707725941,23.430000000000007,74.174
470,maraba,-5.3686,-49.1178,298.25,100,0,1.03,BR,1707725942,25.100000000000023,77.18000000000004
471,freetown,8.484,-13.2299,299.34,77,1,2.37,SL,1707725943,26.189999999999998,79.142
472,thinadhoo,0.5333,72.9333,298.72,89,100,7.61,MV,1707725943,25.57000000000005,78.0260000000001
473,north bay,46.3168,-79.4663,270.9,100,40,1.54,CA,1707725670,-2.25,27.95
474,burang,30.25,81.1667,270.58,28,0,2.6,CN,1707725944,-2.569999999999993,27.374000000000013
475,iquique,-20.2208,-70.1431,294.17,75,100,1.41,CL,1707725945,21.02000000000004,69.83600000000007
476,la junta,37.985,-103.5438,266.31,93,0,6.69,US,1707725712,-6.839999999999975,19.688000000000045
477,argo,37.6333,22.7333,286.92,66,46,3.13,GR,1707725947,13.770000000000039,56.78600000000007
478,yaiza,28.9633,-13.7631,290.02,82,20,3.6,ES,1707725948,16.870000000000005,62.36600000000001
479,youghal,51.95,-7.8506,275.71,100,6,2.44,IE,1707725948,2.5600000000000023,36.608000000000004
480,abu dhabi,24.4667,54.3667,295.34,80,40,4.12,AE,1707725823,22.189999999999998,71.942
481,daru,-9.0763,143.2092,301.11,82,100,2.39,PG,1707725949,27.960000000000036,82.32800000000006
482,pimentel,-6.8367,-79.9342,297.31,83,75,5.66,PE,1707725950,24.160000000000025,75.48800000000004
483,kannangad,12.3081,75.1063,305.73,38,31,4.78,IN,1707725951,32.58000000000004,90.64400000000008
484,praia,14.9215,-23.5087,293.45,83,20,2.57,CV,1707725951,20.30000000000001,68.54000000000002
485,walvis bay,-22.9575,14.5053,294.68,68,0,0.0,NA,1707725826,21.53000000000003,70.75400000000005
486,ekibastuz,51.6667,75.3667,262.35,50,33,7.08,KZ,1707725952,-10.799999999999955,12.56000000000008
487,langsa,4.4683,97.9683,303.4,62,88,3.2,ID,1707725953,30.25,86.45
488,takoradi,4.8845,-1.7554,301.86,80,71,1.73,GH,1707725954,28.710000000000036,83.67800000000007
489,karatau,43.1667,70.4667,272.61,98,100,2.5,KZ,1707725954,-0.5399999999999636,31.028000000000066
490,kloulklubed,7.0419,134.2556,301.43,83,5,9.47,PW,1707725955,28.28000000000003,82.90400000000005
491,pisco,-13.7,-76.2167,297.18,78,40,0.51,PE,1707725956,24.03000000000003,75.25400000000005
492,vrangel',42.7297,133.0839,274.07,83,60,3.14,RU,1707725956,0.9200000000000159,33.65600000000003
493,nikel,69.4128,30.222,260.25,98,100,2.1,RU,1707725957,-12.899999999999977,8.78000000000004
494,summerside,46.3959,-63.7876,274.34,93,16,3.09,CA,1707725958,1.1899999999999977,34.141999999999996
495,katabu,-4.9333,122.5167,300.5,87,100,1.92,ID,1707725958,27.350000000000023,81.23000000000005
496,olyokminsk,60.3736,120.4264,250.63,90,99,3.12,RU,1707725959,-22.519999999999982,-8.535999999999966
497,floro,61.5996,5.0328,278.19,65,75,9.26,NO,1707725960,5.0400000000000205,41.07200000000004
498,lazaro cardenas,17.9583,-102.2,294.51,87,13,1.83,MX,1707725961,21.360000000000014,70.44800000000002
499,xinyuan,37.3,99.0,271.59,22,12,4.34,CN,1707725962,-1.5600000000000023,29.191999999999997
500,cabinda,-5.55,12.2,300.85,78,94,2.42,AO,1707725962,27.700000000000045,81.86000000000008
501,cidreira,-30.1811,-50.2056,296.2,95,38,0.88,BR,1707725963,23.05000000000001,73.49000000000002
502,preston,53.7667,-2.7167,279.05,81,40,7.2,GB,1707725964,5.900000000000034,42.62000000000006
503,pervomayskoye,43.919,46.7102,287.11,50,97,6.25,RU,1707725964,13.960000000000036,57.128000000000064
504,ciudad melchor muzquiz,27.8833,-101.5167,283.36,44,0,0.81,MX,1707725965,10.210000000000036,50.378000000000064
505,lodja,-3.4833,23.4333,303.4,54,98,1.77,CD,1707725965,30.25,86.45
506,la gi,10.6667,107.7833,301.94,57,10,11.77,VN,1707725966,28.79000000000002,83.82200000000003
507,flin flon,54.7682,-101.865,262.82,98,94,2.18,CA,1707725967,-10.329999999999984,13.406000000000027
508,tocopilla,-22.092,-70.1979,295.0,83,100,1.83,CL,1707725967,21.850000000000023,71.33000000000004
509,ust-tsilma,65.441,52.1498,252.38,98,99,0.89,RU,1707725968,-20.769999999999982,-5.385999999999967
510,karratha,-20.7377,116.8463,306.16,52,0,8.81,AU,1707725969,33.01000000000005,91.41800000000009
511,lompoc,34.6391,-120.4579,280.55,93,0,3.09,US,1707725970,7.400000000000034,45.320000000000064
512,kuanda,56.3161,116.0806,261.52,86,47,1.53,RU,1707725971,-11.629999999999995,11.06600000000001
513,oak hill,37.9723,-81.1487,282.32,85,100,0.67,US,1707725691,9.170000000000016,48.50600000000003
514,thunder bay,48.4001,-89.3168,267.14,79,100,0.51,CA,1707725749,-6.009999999999991,21.182000000000016
515,tara,56.8944,74.371,254.98,89,100,4.0,RU,1707725973,-18.169999999999987,-0.7059999999999746
516,skovorodino,53.9833,123.9167,263.69,93,92,0.77,RU,1707725974,-9.45999999999998,14.972000000000037
517,twon-brass,4.3151,6.2418,301.29,82,51,0.63,NG,1707725974,28.140000000000043,82.65200000000007
518,brisas de zicatela,15.8369,-97.0419,294.78,88,1,1.48,MX,1707725975,21.629999999999995,70.934
519,terra santa,-2.1042,-56.4869,296.52,97,97,1.38,BR,1707725976,23.370000000000005,74.066
520,bestwig,51.3667,8.4,279.32,94,96,3.04,DE,1707725976,6.170000000000016,43.10600000000003
521,kaedi,16.1465,-13.5047,297.63,13,0,3.98,MR,1707725977,24.480000000000018,76.06400000000004
522,tongren,27.7172,109.1853,292.06,49,99,0.85,CN,1707725977,18.910000000000025,66.03800000000004
523,saurimo,-9.6608,20.3916,296.69,76,100,0.31,AO,1707725752,23.54000000000002,74.37200000000004
524,zapolyarnyy,69.4154,30.8136,259.75,100,57,1.74,RU,1707725979,-13.399999999999977,7.880000000000042
525,binbrook,43.121,-79.804,273.58,76,100,2.06,CA,1707725979,0.4300000000000068,32.774000000000015
526,greymouth,-42.4667,171.2,288.5,68,85,7.03,NZ,1707725980,15.350000000000023,59.63000000000004
527,warmbad,-28.45,18.7333,305.85,14,5,2.47,NA,1707725981,32.700000000000045,90.86000000000008
528,shingu,33.7333,135.9833,282.59,53,0,1.28,JP,1707725981,9.439999999999998,48.992
529,tekeli,44.83,78.8239,269.61,94,100,2.16,KZ,1707725982,-3.5399999999999636,25.628000000000064
530,khark,29.2614,50.3306,292.16,72,6,5.14,IR,1707725983,19.010000000000048,66.21800000000009
531,ulanhot,46.0833,122.0833,278.74,42,5,8.22,CN,1707725983,5.590000000000032,42.062000000000054
532,bathsheba,13.2167,-59.5167,299.49,78,20,8.75,BB,1707725984,26.340000000000032,79.41200000000006
533,zaozersk,69.4005,32.4476,251.54,99,20,1.88,RU,1707725984,-21.609999999999985,-6.897999999999975
534,palmer,42.1584,-72.3287,273.43,95,0,0.0,US,1707725985,0.28000000000002956,32.504000000000055
535,vicuna,-30.0319,-70.7081,285.0,53,4,0.27,CL,1707725986,11.850000000000023,53.33000000000004
536,lockwood,45.8191,-108.4149,276.09,51,100,4.63,US,1707725987,2.9399999999999977,37.291999999999994
537,kayangel,8.0823,134.7173,300.52,84,100,10.12,PW,1707725987,27.370000000000005,81.266
538,kijang,35.2442,129.2139,281.0,44,0,5.63,KR,1707725988,7.850000000000023,46.13000000000004
539,esmeraldas,-19.7625,-44.3139,293.63,95,3,1.65,BR,1707725989,20.480000000000018,68.86400000000003
540,san jose del guaviare,2.5729,-72.6459,296.63,80,96,1.25,CO,1707725989,23.480000000000018,74.26400000000004
541,bechar,31.6167,-2.2167,283.33,40,0,2.06,DZ,1707725990,10.180000000000007,50.32400000000001
542,baoshan,46.5586,131.4244,273.04,70,100,6.38,CN,1707725991,-0.1099999999999568,31.802000000000078
543,guapore,-28.8456,-51.8903,293.7,83,69,0.77,BR,1707725992,20.55000000000001,68.99000000000002
544,kitimat,54.0524,-128.6534,273.66,68,32,0.77,CA,1707725992,0.5100000000000477,32.918000000000085
545,dangriga,16.9692,-88.2321,298.67,90,75,2.26,BZ,1707725993,25.52000000000004,77.93600000000006
546,sol'tsy,58.1239,30.3238,269.83,96,100,3.39,RU,1707725994,-3.319999999999993,26.02400000000001
547,bani walid,31.7566,13.9942,288.1,37,0,6.99,LY,1707725994,14.950000000000045,58.91000000000008
548,harqalah,36.0303,10.509,286.07,62,20,2.06,TN,1707725995,12.920000000000016,55.25600000000003
549,borba,-4.3878,-59.5939,296.56,99,100,1.11,BR,1707725996,23.410000000000025,74.13800000000005
550,suva,-18.1416,178.4415,299.44,95,100,1.15,FJ,1707725996,26.29000000000002,79.32200000000003
551,brookings,44.3114,-96.7984,272.69,88,0,0.0,US,1707725997,-0.45999999999997954,31.172000000000036
552,cooma,-36.2333,149.1333,301.95,46,62,1.89,AU,1707725997,28.80000000000001,83.84000000000002
553,douglas,41.3,-96.167,273.08,82,0,3.6,US,1707725782,-0.06999999999999318,31.874000000000013
554,tutoia,-2.7619,-42.2744,298.01,93,77,3.5,BR,1707725999,24.860000000000014,76.74800000000002
555,rakops,-21.0167,24.3333,300.43,46,7,5.68,BW,1707725999,27.28000000000003,81.10400000000006
556,kohat,33.582,71.4493,293.19,18,100,1.79,PK,1707726000,20.04000000000002,68.07200000000003
557,brush,40.2589,-103.6238,268.04,86,0,4.63,US,1707726001,-5.109999999999957,22.802000000000078
558,magadan,59.5667,150.8,252.5,97,100,1.93,RU,1707726003,-20.649999999999977,-5.169999999999959
559,rio grande,-32.035,-52.0986,297.56,87,95,2.1,BR,1707726004,24.410000000000025,75.93800000000005
560,novyy buh,47.6931,32.5216,283.81,76,100,7.35,UA,1707726005,10.660000000000025,51.188000000000045
561,ambatondrazaka,-17.8333,48.4167,299.08,71,97,2.9,MG,1707726006,25.930000000000007,78.674
562,lewistown,40.5992,-77.5714,275.27,93,0,0.0,US,1707726006,2.1200000000000045,35.81600000000001
563,castelo do piaui,-5.3222,-41.5525,296.47,78,86,2.06,BR,1707726007,23.32000000000005,73.97600000000008
564,filadelfia,39.9523,-75.1638,279.5,75,75,3.09,US,1707725796,6.350000000000023,43.43000000000004
565,manokwari,-0.8667,134.0833,301.1,76,62,3.21,ID,1707725954,27.950000000000045,82.31000000000009
566,huazhou,21.6333,110.5833,296.13,51,2,6.94,CN,1707726010,22.980000000000018,73.36400000000003
567,ternate,0.8,127.4,300.83,83,100,9.75,ID,1707725760,27.680000000000007,81.82400000000001
568,kedrovyy,56.1667,91.8167,261.5,90,100,5.31,RU,1707726011,-11.649999999999977,11.03000000000004
569,arish,31.1316,33.7984,290.85,49,100,2.91,EG,1707726013,17.700000000000045,63.860000000000085
570,minot,48.2325,-101.2963,270.27,74,0,9.26,US,1707725643,-2.8799999999999955,26.81600000000001
571,linxia chengguanzhen,35.6003,103.2064,283.37,17,0,2.12,CN,1707726014,10.220000000000027,50.39600000000005
572,malinyi,-8.9333,36.1333,297.49,92,100,0.55,TZ,1707726014,24.340000000000032,75.81200000000005
573,north bend,43.4065,-124.2243,281.62,100,100,2.57,US,1707726015,8.470000000000027,47.24600000000005
574,bandar seri begawan,4.9403,114.9481,303.14,79,75,6.26,BN,1707726016,29.99000000000001,85.98200000000001
575,beroroha,-21.6667,45.1667,305.03,52,100,3.19,MG,1707726017,31.879999999999995,89.38399999999999
576,thai binh,20.45,106.3333,295.83,56,49,4.68,VN,1707726017,22.680000000000007,72.82400000000001
577,reggane,26.7158,0.1714,293.6,30,0,4.72,DZ,1707726018,20.450000000000045,68.81000000000009
578,dadukou,26.5479,101.7054,297.79,21,27,2.93,CN,1707726019,24.640000000000043,76.35200000000007
579,ariquemes,-9.9133,-63.0408,296.3,99,97,1.0,BR,1707726020,23.150000000000034,73.67000000000006
580,umluj,25.0213,37.2685,298.22,23,0,2.21,SA,1707726021,25.07000000000005,77.12600000000009
581,kachug,53.9606,105.8817,264.85,77,100,4.47,RU,1707726022,-8.299999999999955,17.06000000000008
582,malango,-2.9627,119.9001,296.07,92,100,0.56,ID,1707726023,22.920000000000016,73.25600000000003
583,bahar,34.9072,48.4414,283.24,34,0,1.03,IR,1707726024,10.090000000000032,50.162000000000056
584,general conesa,-40.1,-64.4333,290.26,54,100,10.45,AR,1707726026,17.110000000000014,62.79800000000002
585,oneonta,42.4529,-75.0638,272.94,81,7,0.43,US,1707725806,-0.20999999999997954,31.622000000000035
586,kavaratti,10.5669,72.642,301.28,70,5,4.49,IN,1707726027,28.129999999999995,82.63399999999999
